maps/search/53.375389,-6.3829317
14.38

$GPRMC,140937.500,A,5322.5542,N,00622.9687,W,24.01,4.80,120419,,,D*46

https://www.google.ie/maps/search/53.375904,-6.3828115
24.01

$GPRMC,140943.000,A,5322.5936,N,00622.9540,W,28.84,20.48,120419,,,D*74

https://www.google.ie/maps/search/53.37656,-6.3825665
28.84

$GPRMC,140948.500,A,5322.6340,N,00622.9131,W,31.69,39.30,120419,,,D*7C

https://www.google.ie/maps/search/53.377232,-6.3818851
31.69

$GPRMC,140954.000,A,5322.6664,N,00622.8596,W,25.71,52.17,120419,,,D*7B

https://www.google.ie/maps/search/53.377773,-6.3809934
25.71

$GPRMC,140959.500,A,5322.6844,N,00622.8201,W,14.72,38.13,120419,,,D*7F

https://www.google.ie/maps/search/53.378075,-6.3803349
14.72

$GPRMC,141005.000,A,5322.6841,N,00622.8006,W,11.55,177.74,120419,,,D*40

https://www.google.ie/maps/search/53.378067,-6.3800101
11.55

$GPRMC,141010.500,A,5322.6745,N,00622.8354,W,20.49,245.77,120419,,,D*40

https://www.google.ie/maps/search/53.377907,-6.38059
20.49

$GPRMC,141016.000,A,5322.6500,N,00622.8872,W,29.65,225.71,120419,,,D*48

https://www.google.ie/maps/search/53.377499,-6.3814535
29.65

$GPRMC,141021.500,A,5322.6113,N,00622.9389,W,34.10,211.22,120419,,,D*4E

https://www.google.ie/maps/search/53.376854,-6.3823152
34.10

$GPRMC,141027.000,A,5322.5643,N,00622.9680,W,31.73,188.46,120419,,,D*41

https://www.google.ie/maps/search/53.376072,-6.3828001
31.73

$GPRMC,141032.500,A,5322.5268,N,00622.9698,W,17.04,171.30,120419,,,D*47

https://www.google.ie/maps/search/53.375446,-6.3828301
17.04

$GPRMC,141038.000,A,5322.5109,N,00622.9759,W,13.14,270.64,120419,,,D*46

https://www.google.ie/maps/search/53.375183,-6.3829317
13.14

$GPRMC,141043.500,A,5322.5180,N,00623.0273,W,26.03,274.38,120419,,,D*46

https://www.google.ie/maps/search/53.375301,-6.3837881
26.03

$GPRMC,141049.000,A,5322.5214,N,00623.1015,W,30.67,273.87,120419,,,D*42

https://www.google.ie/maps/search/53.375355,-6.385025
30.67

$GPRMC,141054.500,A,5322.5247,N,00623.1795,W,29.18,273.57,120419,,,D*4F

https://www.google.ie/maps/search/53.375412,-6.3863249
29.18

$GPRMC,141100.000,A,5322.5246,N,00623.2394,W,19.66,263.31,120419,,,D*46

https://www.google.ie/maps/search/53.375408,-6.3873234
19.66

$GPRMC,141105.500,A,5322.5296,N,00623.2932,W,25.13,273.12,120419,,,D*40

https://www.google.ie/maps/search/53.375492,-6.3882198
25.13

$GPRMC,141111.000,A,5322.5324,N,00623.3618,W,26.04,273.70,120419,,,D*4F

https://www.google.ie/maps/search/53.375542,-6.3893633
26.04

$GPRMC,141116.500,A,5322.5346,N,00623.4175,W,16.37,274.24,120419,,,D*47

https://www.google.ie/maps/search/53.375576,-6.3902917
16.37

$GPRMC,141122.000,A,5322.5358,N,00623.4415,W,1.75,270.41,120419,,,D*7E

https://www.google.ie/maps/search/53.375595,-6.3906918
1.75

$GPRMC,141127.500,A,5322.5335,N,00623.4459,W,0.13,250.65,120419,,,D*78

https://www.google.ie/maps/search/53.375557,-6.3907652
0.13

$GPRMC,141133.000,A,5322.5337,N,00623.4463,W,1.25,252.97,120419,,,D*78

https://www.google.ie/maps/search/53.375561,-6.3907719
1.25

$GPRMC,141138.500,A,5322.5205,N,00623.4418,W,16.93,154.64,120419,,,D*48

https://www.google.ie/maps/search/53.375343,-6.3906965
16.93

$GPRMC,141144.000,A,5322.4882,N,00623.4170,W,27.35,156.66,120419,,,D*47

https://www.google.ie/maps/search/53.374802,-6.3902831
27.35

$GPRMC,141149.500,A,5322.4545,N,00623.3881,W,21.25,150.75,120419,,,D*4A

https://www.google.ie/maps/search/53.374241,-6.3898015
21.25

$GPRMC,141155.000,A,5322.4191,N,00623.3536,W,28.37,152.86,120419,,,D*4A

https://www.google.ie/maps/search/53.373653,-6.3892264
28.37

$GPRMC,141200.500,A,5322.3897,N,00623.3275,W,12.90,138.14,120419,,,D*47

https://www.google.ie/maps/search/53.373161,-6.3887916
12.90

$GPRMC,141206.000,A,5322.3937,N,00623.3005,W,14.76,57.94,120419,,,D*74

https://www.google.ie/maps/search/53.37323,-6.3883414
14.76

$GPRMC,141211.500,A,5322.4054,N,00623.2708,W,9.42,56.08,120419,,,D*48

https://www.google.ie/maps/search/53.373425,-6.3878465
9.42

$GPRMC,141217.000,A,5322.4026,N,00623.2570,W,3.69,147.77,120419,,,D*79

https://www.google.ie/maps/search/53.373375,-6.3876166
3.69

$GPRMC,141222.500,A,5322.4023,N,00623.2570,W,0.04,172.80,120419,,,D*79

https://www.google.ie/maps/search/53.373371,-6.3876166
0.04

$GPRMC,141228.000,A,5322.4023,N,00623.2570,W,0.07,172.80,120419,,,D*75

https://www.google.ie/maps/search/53.373371,-6.3876166
0.07

$GPRMC,141233.500,A,5322.4022,N,00623.2569,W,0.03,172.80,120419,,,D*77

https://www.google.ie/maps/search/53.373371,-6.3876152
0.03

$GPRMC,141239.000,A,5322.4022,N,00623.2569,W,0.00,172.80,120419,,,D*7B

https://www.google.ie/maps/search/53.373371,-6.3876152
0.00

$GPRMC,141244.500,A,5322.4022,N,00623.2569,W,0.02,172.80,120419,,,D*76

https://www.google.ie/maps/search/53.373371,-6.3876152
0.02

$GPRMC,141250.000,A,5322.4022,N,00623.2569,W,0.00,172.80,120419,,,D*74

https://www.google.ie/maps/search/53.373371,-6.3876152
0.00

$GPRMC,141255.500,A,5322.4022,N,00623.2569,W,0.01,172.80,120419,,,D*75

https://www.google.ie/maps/search/53.373371,-6.3876152
0.01

$GPRMC,141301.000,A,5322.4022,N,00623.2569,W,0.00,172.80,120419,,,D*71

https://www.google.ie/maps/search/53.373371,-6.3876152
0.00

$GPRMC,141306.500,A,5322.4022,N,00623.2569,W,0.01,172.80,120419,,,D*72

https://www.google.ie/maps/search/53.373371,-6.3876152
0.01

$GPRMC,141312.000,A,5322.4021,N,00623.2569,W,0.01,172.80,120419,,,D*71

https://www.google.ie/maps/search/53.373367,-6.3876152
0.01

$GPRMC,141317.500,A,5322.4021,N,00623.2570,W,0.00,172.80,120419,,,D*78

https://www.google.ie/maps/search/53.373367,-6.3876166
0.00

$GPRMC,141323.000,A,5322.4021,N,00623.2570,W,0.00,172.80,120419,,,D*7A

https://www.google.ie/maps/search/53.373367,-6.3876166
0.00

$GPRMC,141328.500,A,5322.4021,N,00623.2570,W,0.01,172.80,120419,,,D*75

https://www.google.ie/maps/search/53.373367,-6.3876166
0.01

$GPRMC,141334.000,A,5322.4021,N,00623.2570,W,0.00,172.80,120419,,,D*7C

https://www.google.ie/maps/search/53.373367,-6.3876166
0.00

$GPRMC,141339.500,A,5322.4022,N,00623.2570,W,0.05,172.80,120419,,,D*72

https://www.google.ie/maps/search/53.373371,-6.3876166
0.05

$GPRMC,141345.000,A,5322.4023,N,00623.2570,W,0.08,172.80,120419,,,D*70

https://www.google.ie/maps/search/53.373371,-6.3876166
0.08

$GPRMC,141350.500,A,5322.4024,N,00623.2570,W,0.00,172.80,120419,,,D*7E

https://www.google.ie/maps/search/53.373375,-6.3876166
0.00

$GPRMC,141356.000,A,5322.4024,N,00623.2570,W,0.01,172.80,120419,,,D*7C

https://www.google.ie/maps/search/53.373375,-6.3876166
0.01

$GPRMC,141401.500,A,5322.4024,N,00623.2571,W,0.03,172.80,120419,,,D*7F

https://www.google.ie/maps/search/53.373375,-6.3876185
0.03

$GPRMC,141407.000,A,5322.4023,N,00623.2571,W,0.04,172.80,120419,,,D*7C

https://www.google.ie/maps/search/53.373371,-6.3876185
0.04

$GPRMC,141412.500,A,5322.4022,N,00623.2571,W,0.04,172.80,120419,,,D*7C

https://www.google.ie/maps/search/53.373371,-6.3876185
0.04

$GPRMC,141418.000,A,5322.4022,N,00623.2571,W,0.01,172.80,120419,,,D*76

https://www.google.ie/maps/search/53.373371,-6.3876185
0.01

$GPRMC,141423.500,A,5322.4022,N,00623.2572,W,0.01,172.80,120419,,,D*78

https://www.google.ie/maps/search/53.373371,-6.38762
0.01

$GPRMC,141429.000,A,5322.4022,N,00623.2572,W,0.02,172.80,120419,,,D*74

https://www.google.ie/maps/search/53.373371,-6.38762
0.02

$GPRMC,141434.500,A,5322.4022,N,00623.2572,W,0.01,172.80,120419,,,D*7E

https://www.google.ie/maps/search/53.373371,-6.38762
0.01

$GPRMC,141440.000,A,5322.4022,N,00623.2573,W,0.00,172.80,120419,,,D*78

https://www.google.ie/maps/search/53.373371,-6.3876219
0.00

$GPRMC,141445.500,A,5322.4022,N,00623.2573,W,0.00,172.80,120419,,,D*78

https://www.google.ie/maps/search/53.373371,-6.3876219
0.00

$GPRMC,141451.000,A,5322.4021,N,00623.2573,W,0.00,172.80,120419,,,D*7B

https://www.google.ie/maps/search/53.373367,-6.3876219
0.00

$GPRMC,141456.500,A,5322.4021,N,00623.2573,W,0.00,172.80,120419,,,D*79

https://www.google.ie/maps/search/53.373367,-6.3876219
0.00

$GPRMC,141502.000,A,5322.4021,N,00623.2573,W,0.00,172.80,120419,,,D*7C

https://www.google.ie/maps/search/53.373367,-6.3876219
0.00

$GPRMC,141507.500,A,5322.4021,N,00623.2573,W,0.00,172.80,120419,,,D*7C

https://www.google.ie/maps/search/53.373367,-6.3876219
0.00

$GPRMC,141513.000,A,5322.4021,N,00623.2573,W,0.00,172.80,120419,,,D*7C

https://www.google.ie/maps/search/53.373367,-6.3876219
0.00

$GPRMC,141518.500,A,5322.4021,N,00623.2573,W,0.00,172.80,120419,,,D*72

https://www.google.ie/maps/search/53.373367,-6.3876219
0.00

$GPRMC,141524.000,A,5322.4021,N,00623.2572,W,0.00,142.24,120419,,,D*74

https://www.google.ie/maps/search/53.373367,-6.38762
0.00

$GPRMC,141529.500,A,5322.3986,N,00623.2550,W,5.61,158.53,120419,,,D*76

https://www.google.ie/maps/search/53.37331,-6.3875833
5.61

$GPRMC,141535.000,A,5322.3745,N,00623.2399,W,16.20,160.56,120419,,,D*45

https://www.google.ie/maps/search/53.37291,-6.3873315
16.20

$GPRMC,141540.500,A,5322.3544,N,00623.2262,W,11.49,138.53,120419,,,D*44

https://www.google.ie/maps/search/53.372574,-6.3871036
11.49

$GPRMC,141546.000,A,5322.3457,N,00623.2278,W,7.66,276.55,120419,,,D*7A

https://www.google.ie/maps/search/53.372429,-6.3871298
7.66

$GPRMC,141551.500,A,5322.3427,N,00623.2400,W,6.67,222.40,120419,,,D*72

https://www.google.ie/maps/search/53.372379,-6.3873334
6.67

$GPRMC,141557.000,A,5322.3406,N,00623.2462,W,0.19,201.28,120419,,,D*76

https://www.google.ie/maps/search/53.372345,-6.3874369
0.19

$GPRMC,141602.500,A,5322.3402,N,00623.2463,W,0.00,206.53,120419,,,D*76

https://www.google.ie/maps/search/53.372337,-6.3874383
0.00

$GPRMC,141608.000,A,5322.3402,N,00623.2463,W,0.00,206.53,120419,,,D*79

https://www.google.ie/maps/search/53.372337,-6.3874383
0.00

$GPRMC,141613.500,A,5322.3402,N,00623.2463,W,0.00,206.53,120419,,,D*76

https://www.google.ie/maps/search/53.372337,-6.3874383
0.00
